City_ID,City,Latitude,Longitude,Maximum Temperature (Â°C),Humidity (%),Cloudiness (%),Wind Speed (m/s),Country,Date
0,port-aux-francais,-49.35,70.2167,5.7,76,59,11.85,TF,1708796841
1,jamestown,42.097,-79.2353,-1.38,49,55,0.45,US,1708796842
2,zeya,53.75,127.2667,-25.29,100,78,1.48,RU,1708796842
3,hawaiian paradise park,19.5933,-154.9731,20.5,85,20,2.57,US,1708796842
4,utrik,11.2278,169.8474,25.32,80,100,7.84,MH,1708796842
5,udachny,66.4167,112.4,-31.61,95,97,1.49,RU,1708796843
6,hermanus,-34.4187,19.2345,17.6,82,100,5.32,ZA,1708796843
7,kapoeta,4.7717,33.5903,33.69,23,100,5.07,SS,1708796843
8,isafjordur,66.0755,-23.124,-8.21,77,46,2.53,IS,1708796844
9,dapa,9.7594,126.0531,25.9,83,52,2.64,PH,1708796844
10,touros,-5.1989,-35.4608,30.86,59,35,6.81,BR,1708796844
11,bredasdorp,-34.5322,20.0403,17.06,86,100,7.86,ZA,1708796845
12,ushuaia,-54.8,-68.3,11.81,71,0,4.12,AR,1708796845
13,berdigestyakh,62.0989,126.6992,-33.62,100,100,0.38,RU,1708796845
14,natal,-5.795,-35.2094,33.36,58,40,7.2,BR,1708796846
15,bel ombre,-4.6167,55.4167,26.91,89,40,2.06,SC,1708796846
16,tilcara,-23.5776,-65.3509,13.15,81,95,3.17,AR,1708796846
17,cidreira,-30.1811,-50.2056,26.97,76,11,4.46,BR,1708796847
18,olonkinbyen,70.9221,-8.7187,-4.49,70,100,10.26,SJ,1708796847
19,papatowai,-46.5619,169.4708,11.92,89,91,6.23,NZ,1708796847
20,santa cruz,-17.8,-63.1667,30.03,66,75,6.69,BO,1708796704
21,ulsteinvik,62.3432,5.8487,4.62,86,79,4.47,NO,1708796848
22,ribeira grande,38.5167,-28.7,18.22,82,40,7.2,PT,1708796849
23,stanley,54.868,-1.6985,5.77,75,40,1.54,GB,1708796849
24,mogocha,53.7333,119.7667,-19.67,100,100,0.41,RU,1708796850
25,grytviken,-54.2811,-36.5092,2.43,68,89,6.09,GS,1708796850
26,adamstown,-25.066,-130.1015,26.37,76,45,5.83,PN,1708796850
27,goroka,-6.0834,145.3873,17.27,98,100,0.26,PG,1708796851
28,fale old settlement,-9.3852,-171.2468,29.05,75,45,3.65,TK,1708796851
29,holualoa,19.6228,-155.9522,19.91,72,0,3.09,US,1708796851
30,le port,-20.9373,55.2919,26.98,86,64,2.51,RE,1708796852
31,vadso,70.0744,29.7487,3.49,83,100,12.16,NO,1708796852
32,port alfred,-33.5906,26.891,18.43,92,57,3.87,ZA,1708796852
33,nizhniy kuranakh,58.8353,125.4869,-24.79,100,100,1.09,RU,1708796853
34,chernyshevskiy,63.0128,112.4714,-30.09,100,100,0.47,RU,1708796853
35,carnarvon,-24.8667,113.6333,27.41,79,100,7.39,AU,1708796854
36,castillos,-34.1667,-53.8333,24.53,54,16,5.64,UY,1708796854
37,waitangi,-43.9535,-176.5597,17.12,94,100,2.68,NZ,1708796854
38,lluta,-16.0147,-72.0142,11.61,88,100,3.53,PE,1708796855
39,yermentau,51.6214,73.1069,-20.07,84,75,4.86,KZ,1708796855
40,port mathurin,-19.6833,63.4167,26.95,84,99,6.96,MU,1708796855
41,beinamar,8.6698,15.3813,30.96,18,99,1.55,TD,1708796856
42,dudinka,69.4058,86.1778,-19.07,93,100,8.49,RU,1708796856
43,trincomalee,8.5711,81.2335,26.55,74,14,4.71,LK,1708796856
44,kodiak,57.79,-152.4072,-1.27,64,0,4.12,US,1708796857
45,blackmans bay,-43.0167,147.3167,12.07,89,43,0.45,AU,1708796857
46,puerto natales,-51.7236,-72.4875,17.25,51,75,0.0,CL,1708796857
47,uturoa,-16.7333,-151.4333,28.23,76,82,3.66,PF,1708796858
48,totness,5.8833,-56.3167,28.75,70,90,5.76,SR,1708796858
49,shache,38.4167,77.2406,0.21,54,100,2.58,CN,1708796859
50,masterton,-40.9597,175.6575,17.83,82,99,4.51,NZ,1708796859
51,el calafate,-50.3408,-72.2768,13.32,54,25,2.51,AR,1708796860
52,sheksna,59.21,38.5107,0.98,98,100,7.5,RU,1708796860
53,tapejara,-28.0681,-52.0139,29.21,54,47,1.25,BR,1708796860
54,saint-philippe,-21.3585,55.7679,25.77,89,90,2.85,RE,1708796861
55,avarua,-21.2078,-159.775,26.03,100,75,0.0,CK,1708796656
56,cockburn town,21.4612,-71.1419,24.76,71,4,5.05,TC,1708796861
57,st. john's,47.5649,-52.7093,7.75,78,75,6.17,CA,1708796862
58,atafu village,-8.5421,-172.5159,28.78,74,48,3.76,TK,1708796862
59,nabire,-3.3667,135.4833,24.22,94,100,1.97,ID,1708796862
60,cochirleanca,45.2167,27.0333,13.88,51,15,1.96,RO,1708796863
61,newman,37.3138,-121.0208,13.35,68,76,0.45,US,1708796863
62,aasiaat,68.7098,-52.8699,-10.92,84,100,5.06,GL,1708796863
63,daru,-9.0763,143.2092,25.48,92,91,3.82,PG,1708796864
64,titao,13.7667,-2.0667,31.64,9,2,2.31,BF,1708796864
65,port elizabeth,-33.918,25.5701,21.17,83,0,3.6,ZA,1708796864
66,petropavlovsk-kamchatsky,53.0452,158.6483,-20.86,82,0,5.36,RU,1708796865
67,khandyga,62.6667,135.6,-43.02,100,54,1.01,RU,1708796865
68,dalandzadgad,43.5708,104.425,-11.83,68,56,1.0,MN,1708796866
69,college,64.8569,-147.8028,-18.82,77,40,0.0,US,1708796866
70,iskushuban,10.2837,50.23,22.1,71,90,4.76,SO,1708796866
71,coquimbo,-29.9533,-71.3436,21.85,73,0,7.2,CL,1708796596
72,edinburgh of the seven seas,-37.0676,-12.3116,17.3,67,4,5.82,SH,1708796867
73,igarka,67.4667,86.5833,-23.48,95,98,6.31,RU,1708796867
74,shuangcheng,45.35,126.2833,-13.18,95,100,1.22,CN,1708796868
75,invercargill,-46.4,168.35,12.79,84,91,4.02,NZ,1708796868
76,bodaybo,57.8506,114.1933,-21.48,99,100,0.92,RU,1708796868
77,susuman,62.7833,148.1667,-37.79,99,85,0.45,RU,1708796869
78,bilibino,68.0546,166.4372,-32.41,100,100,0.6,RU,1708796869
79,bonthe,7.5264,-12.505,29.17,59,12,6.2,SL,1708796869
80,roding,49.1964,12.5186,6.03,75,71,1.0,DE,1708796870
81,whitehorse,60.7161,-135.0538,-16.57,84,20,1.54,CA,1708796401
82,hithadhoo,-0.6,73.0833,28.32,79,91,6.32,MV,1708796870
83,sisimiut,66.9395,-53.6735,-13.19,90,100,6.53,GL,1708796871
84,vorgashor,67.5833,63.95,-4.31,96,100,5.21,RU,1708796871
85,mount isa,-20.7333,139.5,25.87,73,10,4.12,AU,1708796871
86,nar'yan-mar,67.6713,53.087,-1.05,94,100,7.6,RU,1708796871
87,nova sintra,14.8667,-24.7167,20.52,74,99,9.98,CV,1708796872
88,dauphin,51.1494,-100.0502,0.08,74,0,6.69,CA,1708796872
89,yellowknife,62.456,-114.3525,-25.88,80,75,4.63,CA,1708796872
90,bedesa,8.9,40.7833,21.32,46,89,2.91,ET,1708796873
91,ust-nera,64.5667,143.2,-36.1,99,66,1.32,RU,1708796873
92,road town,18.4167,-64.6167,28.05,69,20,3.6,VG,1708796873
93,huillapima,-28.7253,-65.9787,26.96,54,74,4.49,AR,1708796873
94,gadzhiyevo,69.2551,33.3362,1.84,78,26,11.76,RU,1708796874
95,albany,42.6001,-73.9662,-1.14,59,54,3.13,US,1708796605
96,port douglas,-16.4833,145.4667,26.41,86,76,1.16,AU,1708796874
97,margaret river,-33.95,115.0667,16.21,78,49,5.68,AU,1708796875
98,praia da vitoria,38.7333,-27.0667,20.14,64,20,4.46,PT,1708796875
99,bhadrachalam,17.6667,80.8833,24.27,80,41,2.7,IN,1708796875
100,la foa,-21.7108,165.8276,24.61,83,62,2.31,NC,1708796875
101,tura,25.5198,90.2201,16.53,27,18,1.26,IN,1708796876
102,taoudenni,22.6783,-3.9836,28.17,17,0,2.09,ML,1708796876
103,celanova,42.153,-7.9551,7.66,91,93,2.86,ES,1708796876
104,cartagena del chaira,1.3349,-74.8429,37.91,24,80,2.56,CO,1708796877
105,longyearbyen,78.2186,15.6401,-5.09,80,75,1.54,SJ,1708796877
106,quellon,-43.1167,-73.6167,15.55,63,8,5.48,CL,1708796877
107,ataq,14.5377,46.8319,21.41,62,25,3.68,YE,1708796877
108,santa maria,-29.6842,-53.8069,32.61,55,20,3.6,BR,1708796878
109,anadyr,64.75,177.4833,-19.72,76,75,5.0,RU,1708796878
110,lihue,21.9789,-159.3672,22.77,76,20,3.6,US,1708796878
111,keflavik,64.0049,-22.5624,-1.05,74,40,7.72,IS,1708796878
112,kuala tungkal,-0.8167,103.4667,25.54,89,93,3.37,ID,1708796879
113,lazaro cardenas,17.9583,-102.2,28.59,58,85,3.18,MX,1708796879
114,selfoss,63.9331,-20.9971,-5.53,81,100,4.5,IS,1708796879
115,tofol,5.3248,163.0078,28.22,79,100,8.68,FM,1708796880
116,forster,-32.1667,152.5167,19.6,100,100,4.07,AU,1708796880
117,tiksi,71.6872,128.8694,-29.44,99,84,3.86,RU,1708796880
118,kirakira,-10.4544,161.9205,26.59,85,99,1.67,SB,1708796881
119,aykhal,66.0,111.5,-26.74,82,100,2.04,RU,1708796881
120,mirnyy,62.5353,113.9611,-25.43,83,100,1.79,RU,1708796881
121,gumdag,39.2061,54.5906,3.6,64,89,6.34,TM,1708796882
122,barcelos,41.5388,-8.6151,13.08,80,75,4.43,PT,1708796882
123,volkhov,59.9258,32.3382,2.24,98,100,5.91,RU,1708796883
124,sao tome,0.3365,6.7273,30.02,70,75,2.57,ST,1708796697
125,xanxere,-26.8769,-52.4042,30.06,55,96,0.89,BR,1708796884
126,bethel,41.3712,-73.414,5.57,50,0,6.69,US,1708796884
127,hammerfest,70.6634,23.6821,4.25,70,91,9.77,NO,1708796885
128,yei,4.095,30.6779,30.17,30,100,1.33,SS,1708796886
129,boa vista,2.8197,-60.6733,34.99,43,40,5.66,BR,1708796679
130,fisterra,42.9049,-9.2629,11.53,88,100,8.98,ES,1708796886
131,dieppe,49.75,1.1667,6.22,89,91,1.34,FR,1708796887
132,domanic,39.8,29.6167,8.8,68,6,0.61,TR,1708796887
133,mek'ele,13.4967,39.4753,18.48,41,38,5.18,ET,1708796887
134,prince rupert,54.3161,-130.3201,4.83,100,100,3.09,CA,1708796888
135,buritama,-21.0661,-50.1472,31.94,48,57,1.29,BR,1708796888
136,weno,7.4515,151.8468,27.34,84,64,8.03,FM,1708796888
137,uray,60.1247,64.7758,-8.78,95,59,3.2,RU,1708796889
138,xining,36.6167,101.7667,-7.52,95,97,0.64,CN,1708796894
139,el aioun,34.5832,-2.5061,10.1,69,54,10.97,MA,1708796894
140,kununurra,-15.7667,128.7333,25.99,94,100,1.54,AU,1708796894
141,grand falls-windsor,48.9332,-55.6649,6.95,83,100,4.92,CA,1708796895
142,las veredas,23.1388,-109.7075,27.86,36,75,4.12,MX,1708796895
143,canals,38.9625,-0.5844,15.57,29,47,3.58,ES,1708796895
144,klyuchi,52.2667,79.1667,-21.09,95,24,2.63,RU,1708796896
145,chonchi,-42.6128,-73.8092,18.56,43,27,1.54,CL,1708796896
146,iskateley,67.6803,53.1512,-1.1,94,100,7.6,RU,1708796897
147,kavieng,-2.5744,150.7967,27.11,83,100,4.07,PG,1708796897
148,shilin,24.8188,103.3324,11.61,49,19,3.06,CN,1708796898
149,vilyuysk,63.7553,121.6247,-34.11,100,99,0.26,RU,1708796898
150,revda,56.801,59.9303,-12.2,88,60,5.26,RU,1708796898
151,talnakh,69.4865,88.3972,-19.33,93,99,4.37,RU,1708796899
152,swakopmund,-22.6833,14.5333,18.32,80,25,1.79,NA,1708796899
153,pontianak,-0.0333,109.3333,24.99,94,100,1.03,ID,1708796899
154,filadelfia,39.9523,-75.1638,7.38,55,75,7.72,US,1708796806
155,poland,44.0606,-70.3937,0.44,37,0,9.77,US,1708796900
156,slavyanka,42.8633,131.3847,-3.01,73,100,0.29,RU,1708796900
157,rabigh,22.7986,39.0349,25.1,65,2,3.94,SA,1708796901
158,georgetown,5.4112,100.3354,29.97,77,20,2.06,MY,1708796889
159,san andres,12.5847,-81.7006,29.01,61,20,5.66,CO,1708796901
160,mugeni,46.25,25.2167,10.98,63,100,0.82,RO,1708796902
161,oqtosh,39.9214,65.9253,2.71,78,100,4.23,UZ,1708796903
162,minas de marcona,-15.2119,-75.1103,24.91,54,81,8.21,PE,1708796842
163,ta`u,-14.2336,-169.5144,27.9,78,79,3.32,AS,1708796903
164,tsiombe,-25.3,45.4833,24.3,82,20,8.09,MG,1708796904
165,punta arenas,-53.15,-70.9167,15.06,63,75,5.14,CL,1708796904
166,guiglo,6.5456,-7.4966,34.4,19,67,0.7,CI,1708796904
167,tromso,69.6496,18.957,5.01,56,75,11.83,NO,1708796905
168,nizhneangarsk,55.7833,109.55,-25.0,87,70,2.68,RU,1708796909
169,iqaluit,63.7506,-68.5145,-30.15,67,40,1.03,CA,1708796910
170,tolanaro,-25.0319,46.9987,26.04,83,40,6.17,MG,1708796910
171,afaahiti,-17.75,-149.2833,28.93,75,80,2.04,PF,1708796911
172,hood river,45.7054,-121.5215,12.41,77,0,4.47,US,1708796911
173,fort st. john,56.2499,-120.8529,-6.06,58,75,3.09,CA,1708796912
174,pavullo nel frignano,44.3315,10.835,7.8,89,100,3.6,IT,1708796912
175,mandalgovi,45.7625,106.2708,-20.6,83,40,1.84,MN,1708796912
176,brookings,44.3114,-96.7984,5.03,81,0,7.72,US,1708796789
177,belomorsk,64.5232,34.7668,0.91,98,100,3.53,RU,1708796913
178,san julian,21.0167,-102.1667,22.57,25,92,2.7,MX,1708796913
179,luderitz,-26.6481,15.1594,18.21,76,1,8.19,NA,1708796914
180,maracaibo,10.6317,-71.6406,32.99,43,13,1.41,VE,1708796849
181,kharp,66.8014,65.8081,-7.72,91,99,3.27,RU,1708796915
182,puerto ayora,-0.7393,-90.3518,30.98,90,53,4.92,EC,1708796915
183,nagyszenas,46.6833,20.6667,10.55,94,100,0.73,HU,1708796915
184,okuta,9.2167,3.1833,32.55,25,41,2.89,NG,1708796916
185,klaksvik,62.2266,-6.589,2.51,75,73,10.29,FO,1708796917
186,lamar,33.6668,-95.5836,21.05,28,0,2.06,US,1708796917
187,merizo village,13.2658,144.6691,26.31,93,100,8.78,GU,1708796918
188,qaqortoq,60.7167,-46.0333,-0.86,94,100,3.19,GL,1708796918
189,thunder bay,48.4001,-89.3168,-2.01,54,20,5.66,CA,1708796908
190,pisco,-13.7,-76.2167,27.03,65,0,4.63,PE,1708796919
191,tazovsky,67.4667,78.7,-16.87,95,100,7.2,RU,1708796919
192,darwin,-12.4611,130.8418,28.83,90,75,4.02,AU,1708796397
193,balqash,46.8481,74.995,-17.02,90,5,4.22,KZ,1708796920
194,ilulissat,69.2167,-51.1,-3.99,63,75,3.6,GL,1708796920
195,aldinga beach,-35.2793,138.4604,19.8,48,80,2.36,AU,1708796921
196,changtu,42.7788,124.0955,-6.82,84,100,1.0,CN,1708796921
197,chinsali,-10.5414,32.0816,19.41,91,99,0.27,ZM,1708796921
198,port saint john's,-31.6229,29.5448,24.73,90,100,5.05,ZA,1708796922
199,mount pearl,47.5166,-52.7813,7.29,70,75,6.69,CA,1708796823
200,mejit,10.2753,170.8646,26.02,81,100,9.32,MH,1708796922
201,san antonio de pale,-1.4014,5.6325,28.73,72,100,3.16,GQ,1708796923
202,huai yot,7.7893,99.6348,23.58,87,57,2.18,TH,1708796883
203,wotho,10.1657,166.0102,26.0,81,100,7.79,MH,1708796923
204,marsh harbour,26.5412,-77.0636,22.12,66,91,7.3,BS,1708796924
205,machico,32.7,-16.7667,19.45,72,40,4.63,PT,1708796924
206,lodwar,3.1191,35.5973,32.2,34,75,7.79,KE,1708796925
207,kolonia,50.9333,6.95,6.57,77,75,5.66,DE,1708796925
208,red hill,33.9996,-79.2581,17.73,43,10,5.92,US,1708796926
209,armacao de buzios,-22.7469,-41.8817,34.09,80,40,4.19,BR,1708796926
210,west island,-12.1568,96.8225,28.25,66,100,4.69,CC,1708796926
211,bubaque,11.2833,-15.8333,26.99,55,8,5.76,GW,1708796927
212,vila franca do campo,37.7167,-25.4333,18.27,99,100,4.92,PT,1708796927
213,port lincoln,-34.7333,135.8667,17.22,80,63,2.0,AU,1708796928
214,saipan,15.1355,145.701,25.39,83,20,5.14,MP,1708796928
215,kuloy,61.0305,42.4925,-0.51,91,100,5.22,RU,1708796928
216,belabo,4.9333,13.3,27.23,29,100,1.57,CM,1708796929
217,molochnoye,59.2917,39.6787,0.18,94,100,6.26,RU,1708796929
218,sinan,34.8262,126.1086,3.06,96,100,4.55,KR,1708796930
219,jayapura,-2.5333,140.7,23.66,91,100,2.07,ID,1708796930
220,rio grande,-32.035,-52.0986,29.06,71,18,5.76,BR,1708796930
221,almodovar del campo,38.7094,-4.1791,9.68,72,73,4.62,ES,1708796931
222,saint-joseph,-21.3667,55.6167,25.21,90,95,2.54,RE,1708796931
223,bamboo flat,11.7,92.7167,26.05,83,9,0.51,IN,1708796931
224,sao jose,-28.2333,-49.1667,31.93,89,38,0.43,BR,1708796700
225,katsuura,35.1333,140.3,7.68,67,94,5.32,JP,1708796932
226,kuching,1.55,110.3333,26.66,97,40,0.51,MY,1708796932
227,manismata,-2.4667,111.0333,23.65,99,75,1.31,ID,1708796933
228,chyorny yar,48.0624,46.1091,-5.86,75,0,3.98,RU,1708796933
229,badger,64.8,-147.5333,-18.86,81,0,0.0,US,1708796934
230,mugia,43.1041,-9.2179,11.62,89,100,9.08,ES,1708796934
231,ravar,31.2656,56.8055,12.71,26,100,1.01,IR,1708796934
232,vengerovo,55.6848,76.7471,-15.92,96,100,3.8,RU,1708796934
233,bam,29.106,58.357,15.64,19,71,0.73,IR,1708796935
234,suva,-18.1416,178.4415,23.71,94,40,1.54,FJ,1708796935
235,la sarre,48.8002,-79.1996,-14.95,79,55,2.33,CA,1708796935
236,salekhard,66.53,66.6019,-8.13,92,100,3.32,RU,1708796935
237,tughyl,47.7252,84.2063,-11.04,93,96,2.77,KZ,1708796936
238,guiuan,11.0333,125.7247,26.76,81,15,5.47,PH,1708796936
239,crane,31.3974,-102.3501,20.0,32,0,8.6,US,1708796936
240,yanbu,24.0891,38.0637,28.02,42,20,7.2,SA,1708796936
241,san patricio,28.017,-97.5169,26.05,30,6,4.77,US,1708796937
242,cabugao,17.7931,120.4578,23.42,82,0,1.83,PH,1708796937
243,whistler,50.1164,-122.9695,3.73,100,100,1.03,CA,1708796937
244,carbonear,47.7332,-53.2148,8.0,77,76,7.88,CA,1708796937
245,korla,41.7597,86.1469,-2.28,50,100,1.89,CN,1708796938
246,kapa'a,22.0752,-159.319,23.18,77,20,3.6,US,1708796938
247,porto novo,6.4965,2.6036,30.9,64,98,2.74,BJ,1708796939
248,concepcion,-36.827,-73.0498,21.89,46,0,6.69,CL,1708796939
249,howrah,22.5892,88.3103,23.0,64,40,2.57,IN,1708796939
250,monrovia,6.3005,-10.7969,28.24,72,11,5.37,LR,1708796940
251,arraial do cabo,-22.9661,-42.0278,33.98,62,0,5.66,BR,1708796940
252,murzuq,25.9155,13.9184,21.57,15,0,5.83,LY,1708796940
253,miranda,3.2499,-76.2281,29.07,64,64,1.66,CO,1708796940
254,palmer,42.1584,-72.3287,3.06,51,20,4.63,US,1708796941
255,ciudad manuel doblado,20.7333,-101.9333,25.05,30,57,2.23,MX,1708796656
256,nemuro,43.3236,145.575,-5.25,65,16,4.53,JP,1708796942
257,charlottetown,46.2352,-63.1267,-1.71,95,100,7.72,CA,1708796849
258,sungai besar,3.6746,100.9867,25.0,86,79,1.61,MY,1708796942
259,antsiranana,-12.2787,49.2917,26.15,83,12,3.66,MG,1708796943
260,kinango,-4.1372,39.3153,28.06,89,88,2.19,KE,1708796943
261,megion,61.0296,76.1136,-20.55,100,94,2.3,RU,1708796943
262,akobo,7.4344,3.9497,27.54,44,100,0.84,NG,1708796944
263,villa gesell,-37.2639,-56.973,19.47,54,80,6.71,AR,1708796944
264,ulladulla,-35.35,150.4667,15.77,87,31,1.88,AU,1708796944
265,gora kalwaria,51.9765,21.2154,7.75,79,100,1.79,PL,1708796945
266,la maddalena,41.2142,9.4083,12.03,62,90,2.67,IT,1708796946
267,vorkuta,67.5,64.0,-4.17,96,100,5.3,RU,1708796946
268,tocopilla,-22.092,-70.1979,24.08,74,78,3.94,CL,1708796513
269,port blair,11.6667,92.75,26.02,83,7,0.51,IN,1708796947
270,along,28.1667,94.7667,10.26,93,41,1.28,IN,1708796947
271,bom jesus,-9.0744,-44.3586,33.1,44,72,3.48,BR,1708796948
272,qarqaraly,49.4058,75.4742,-25.74,100,87,1.98,KZ,1708796948
273,caleta de carquin,-11.0925,-77.6267,27.23,71,94,6.31,PE,1708796948
274,puerto armuelles,8.2833,-82.8667,32.99,54,23,1.79,PA,1708796949
275,new norfolk,-42.7826,147.0587,12.72,97,48,1.41,AU,1708796949
276,lillehammer,61.1146,10.4674,0.74,96,94,1.96,NO,1708796950
277,heihe,50.2441,127.4902,-17.68,100,81,0.51,CN,1708796950
278,mont-joli,48.5839,-68.1921,-13.28,56,40,6.17,CA,1708796951
279,kiunga,-6.1219,141.2906,23.17,100,99,0.74,PG,1708796951
280,kavaratti,10.5669,72.642,27.26,62,31,4.17,IN,1708796951
281,umiray,15.2206,121.4111,24.99,92,82,6.54,PH,1708796954
282,olinda,-8.0089,-34.8553,30.85,62,20,8.75,BR,1708796738
283,mormugao,15.4,73.8,25.59,69,7,2.06,IN,1708796957
284,hilo,19.7297,-155.09,22.01,78,20,2.57,US,1708796660
285,sos'va,59.1766,61.8558,-7.75,91,75,3.13,RU,1708796958
286,borogontsy,62.6683,131.1683,-39.43,100,60,1.21,RU,1708796958
287,mount gambier,-37.8333,140.7667,9.47,91,66,1.3,AU,1708796958
288,laojunmiao,39.8333,97.7333,-9.23,65,56,1.91,CN,1708796959
289,howard springs,-12.497,131.047,28.95,96,100,2.97,AU,1708796959
290,thompson,55.7435,-97.8558,-1.91,74,75,7.2,CA,1708796959
291,byala slatina,43.4667,23.9333,15.78,58,100,2.58,BG,1708796960
292,ormara,25.2088,64.6357,22.62,66,2,4.43,PK,1708796962
293,novovorontsovka,47.5004,33.9175,3.8,75,36,7.23,UA,1708796962
294,tippi,7.2,35.45,24.88,51,97,1.0,ET,1708796963
295,motygino,58.1831,94.7592,-25.12,99,100,1.34,RU,1708796963
296,nova vicosa,-17.8919,-39.3719,29.31,65,4,4.25,BR,1708796966
297,gorgan,36.8387,54.4348,5.98,93,100,2.06,IR,1708796968
298,nakamura,32.9833,132.9333,7.38,97,100,1.76,JP,1708796969
299,narvik,68.4384,17.4272,5.67,69,100,6.41,NO,1708796970
300,lebu,-37.6167,-73.65,17.37,61,84,7.12,CL,1708796855
301,rio negrinho,-26.2544,-49.5183,24.97,85,99,1.57,BR,1708796971
302,byerazino,53.8391,28.9879,7.92,83,100,7.13,BY,1708796971
303,tazacorte,28.629,-17.9293,19.54,71,40,8.75,ES,1708796971
304,tavda,58.0425,65.2726,-7.39,94,94,3.58,RU,1708796972
305,chaihe,44.7667,129.7,-16.15,96,100,0.58,CN,1708796972
306,san isidro de curuguaty,-24.5167,-55.7,35.78,37,93,0.51,PY,1708796972
307,strezhevoy,60.7333,77.5889,-20.97,100,96,2.03,RU,1708796973
308,roma,43.2128,-75.4557,-4.12,42,0,3.6,US,1708796973
309,coahuayana de hidalgo,18.7,-103.6583,30.19,55,32,2.67,MX,1708796973
310,ghadamis,30.1337,9.5007,17.47,32,99,9.69,LY,1708796974
311,lengshuitan,26.4111,111.5956,0.01,82,100,2.08,CN,1708796974
312,ziniare,12.5822,-1.2983,38.02,13,8,0.94,BF,1708796974
313,la ronge,55.1001,-105.2842,-7.86,62,75,9.77,CA,1708796975
314,raton,36.9034,-104.4391,9.19,36,0,2.57,US,1708796975
315,tieli,46.95,128.05,-20.36,99,33,1.65,CN,1708796975
316,kapuskasing,49.4169,-82.4331,-10.95,48,40,4.63,CA,1708796976
317,mil'kovo,55.6078,37.7956,1.35,84,100,7.21,RU,1708796976
318,ketchikan,55.3422,-131.6461,2.97,100,100,1.54,US,1708796976
319,palangkaraya,-2.2,113.8333,22.53,98,98,2.05,ID,1708796977
320,uribia,11.7139,-72.266,33.16,39,95,5.59,CO,1708796977
321,mikhaylov,54.2292,39.0186,-0.29,90,99,7.39,RU,1708796977
322,lodja,-3.4833,23.4333,23.14,97,83,1.5,CD,1708796978
323,sovetskaya gavan',48.9723,140.2878,-18.83,92,44,1.84,RU,1708796978
324,kralendijk,12.15,-68.2667,30.99,62,40,6.17,BQ,1708796978
325,khorixas,-20.3667,14.9667,26.18,23,4,8.08,NA,1708796979
326,broken hill,-31.95,141.4333,17.31,30,0,1.4,AU,1708796979
327,muang xay,20.7,101.9833,19.58,40,2,0.85,LA,1708796979
328,mizan teferi,6.9833,35.5833,22.74,52,99,0.6,ET,1708796979
329,manokwari,-0.8667,134.0833,25.62,83,98,3.13,ID,1708796980
330,volokonovka,50.4827,37.8563,-0.39,80,89,7.18,RU,1708796980
331,kanel,15.4916,-13.1763,35.0,17,0,1.03,SN,1708796981
332,yuzhno-kurilsk,44.0306,145.8556,-7.01,56,86,2.32,RU,1708796981
333,quelimane,-17.8786,36.8883,28.97,88,40,2.39,MZ,1708796981
334,pemangkat,1.1667,108.9667,25.53,91,74,3.98,ID,1708796981
335,wailua homesteads,22.0669,-159.378,22.44,77,20,3.6,US,1708796982
336,hamilton,39.1834,-84.5333,0.92,69,100,6.69,US,1708796982
337,thai nguyen,21.5928,105.8442,11.88,90,100,1.4,VN,1708796896
338,elverum,60.8819,11.5623,1.83,93,100,2.21,NO,1708796983
339,queenstown,-31.8976,26.8753,19.98,75,57,1.14,ZA,1708796983
340,palmares do sul,-30.2578,-50.5097,30.38,54,4,5.09,BR,1708796983
341,ebon,4.582,168.6964,27.68,78,99,4.56,MH,1708796984
342,joshimath,30.5667,79.5667,1.71,66,95,1.06,IN,1708796984
343,tarko-sale,64.9225,77.785,-17.64,94,100,5.75,RU,1708796984
344,maceio,-9.6658,-35.7353,28.69,78,75,5.66,BR,1708796840
345,auki,-8.7676,160.7034,26.1,87,91,1.44,SB,1708796985
346,saudarkrokur,65.7461,-19.6394,-6.17,81,99,4.8,IS,1708796985
347,bridgewater,44.3835,-64.5155,2.04,95,100,8.75,CA,1708796985
348,kingston,17.997,-76.7936,27.53,69,75,3.6,JM,1708796830
349,churapcha,62.0025,132.4325,-39.5,100,67,0.35,RU,1708796986
350,zhezqazghan,47.7833,67.7667,-22.54,77,0,3.63,KZ,1708796986
351,fauske,67.2588,15.3918,6.02,77,100,4.61,NO,1708796986
352,machali,-34.1833,-70.6667,27.6,42,0,3.6,CL,1708796987
353,volodarskiy,46.4013,48.5409,-6.03,64,0,3.7,RU,1708796987
354,aitape,-3.1374,142.3475,24.77,89,98,2.5,PG,1708796987
355,nguigmi,14.2495,13.1092,25.61,29,93,0.91,NE,1708796988
356,floro,61.5996,5.0328,3.98,93,75,6.17,NO,1708796988
357,sinaloa de leyva,25.8333,-108.2333,30.13,16,100,0.32,MX,1708796988
358,usinsk,65.9939,57.5281,-0.52,93,100,8.05,RU,1708796989
359,burang,30.25,81.1667,-20.15,99,99,1.26,CN,1708796989
360,zakynthos,37.7914,20.8953,15.91,94,40,7.72,GR,1708796989
361,rebola,3.7167,8.8333,27.62,84,75,1.54,GQ,1708796989
362,waingapu,-9.6567,120.2641,27.05,83,99,1.13,ID,1708796990
363,mazatlan,23.2167,-106.4167,24.39,67,75,0.45,MX,1708796990
364,kalmunai,7.4167,81.8167,25.23,77,6,2.07,LK,1708796991
365,greymouth,-42.4667,171.2,13.42,92,52,1.29,NZ,1708796991
366,flying fish cove,-10.4217,105.6791,25.82,88,40,1.54,CX,1708796991
367,bathsheba,13.2167,-59.5167,30.34,66,40,9.26,BB,1708796991
368,kayyerkan,69.3786,87.7439,-19.28,70,94,4.14,RU,1708796992
369,namibe,-15.1961,12.1522,25.21,83,100,4.93,AO,1708796992
370,nykobing falster,54.7691,11.8743,6.16,84,75,0.89,DK,1708796992
371,sarykemer,43.0,71.5,-7.29,95,100,3.15,KZ,1708796993
372,piraeus,37.947,23.645,16.86,81,20,2.68,GR,1708796993
373,saldanha,-33.0117,17.9442,20.03,84,100,8.28,ZA,1708796993
374,kodinsk,58.6881,99.1844,-25.31,100,93,0.82,RU,1708796993
375,wenchang,30.904,118.4887,-1.02,91,100,2.23,CN,1708796994
376,smithers,54.7804,-127.1743,-1.82,93,100,0.0,CA,1708796994
377,yuto,-23.6434,-64.4719,28.01,72,98,0.45,AR,1708796994
378,conduaga,8.862,117.4893,25.34,84,11,1.29,PH,1708796995
379,bechar,31.6167,-2.2167,18.18,20,20,10.8,DZ,1708796995
380,lagos,6.5833,3.75,32.18,66,98,1.18,NG,1708796914
381,chichiriviche,10.9333,-68.2772,27.72,70,80,4.28,VE,1708796996
382,vegreville,53.5001,-112.0518,-0.97,71,25,6.69,CA,1708796996
383,lompoc,34.6391,-120.4579,20.47,68,0,3.09,US,1708796996
384,east london,-33.0153,27.9116,22.52,78,20,3.09,ZA,1708796997
385,mezhdurechenskiy,59.6,65.9333,-7.68,95,55,3.14,RU,1708796997
386,kailua-kona,19.6406,-155.9956,21.98,70,0,3.09,US,1708796997
387,veinticinco de mayo,-35.4323,-60.1727,28.67,33,11,4.48,AR,1708796997
388,bardai,11.65,7.2333,28.44,22,86,3.6,NG,1708796998
389,semnan,35.5729,53.3971,5.08,64,99,5.76,IR,1708796998
390,fortuna,40.5982,-124.1573,12.77,89,0,0.0,US,1708796998
391,sinabang,2.4803,96.3801,27.33,82,97,3.81,ID,1708796999
392,ashta,23.0167,76.7167,17.83,23,0,3.23,IN,1708796999
393,charters towers,-20.1,146.2667,20.29,86,90,3.45,AU,1708796999
394,kimbe,-5.5502,150.1429,25.29,93,100,2.26,PG,1708796999
395,alice springs,-23.7,133.8833,27.9,34,0,3.6,AU,1708797000
396,wenshui,28.4506,106.5267,1.53,93,100,0.83,CN,1708797000
397,thurles,52.6819,-7.8022,7.49,84,88,2.3,IE,1708797000
398,bilmak,47.3624,36.6511,3.1,66,16,8.12,UA,1708797001
399,constantia,44.1833,28.65,10.39,81,52,7.09,RO,1708797001
400,watsa,3.0372,29.5355,27.21,36,99,0.14,CD,1708797001
401,tokar,18.4254,37.729,25.35,80,95,6.32,SD,1708797002
402,chernyakhovsk,54.6335,21.8156,4.64,83,95,4.72,RU,1708797002
403,alta,69.9689,23.2717,4.59,78,20,6.69,NO,1708797003
404,sitka,57.0531,-135.33,0.94,80,20,2.06,US,1708797004
405,xacmaz,41.4635,48.806,1.82,76,100,1.11,AZ,1708797004
406,ugoofaaru,5.6667,73.0,28.13,71,74,4.33,MV,1708797005
407,kudahuvadhoo,2.6708,72.8944,28.06,75,71,6.27,MV,1708797005
408,choibalsan,48.0667,114.5,-19.38,99,100,1.89,MN,1708797006
409,banyo,6.75,11.8167,27.88,25,97,2.02,CM,1708797006
410,pandan,14.0453,124.1694,25.36,89,54,6.74,PH,1708797007
411,vilyuchinsk,52.9306,158.4028,-20.04,75,6,4.47,RU,1708797007
412,poronaysk,49.2167,143.1167,-23.05,95,17,1.71,RU,1708797008
413,vrindavan,27.5833,77.7,14.6,28,45,2.74,IN,1708797008
414,rawson,-43.3002,-65.1023,20.51,42,100,10.33,AR,1708797008
415,myeik,12.4333,98.6,25.62,76,9,1.44,MM,1708797009
416,mana,5.6592,-53.7767,28.25,74,70,5.74,GF,1708797010
417,port-gentil,-0.7193,8.7815,29.98,79,40,2.06,GA,1708797010
418,botucatu,-22.8858,-48.445,29.05,57,30,0.41,BR,1708797011
419,ancud,-41.8697,-73.8203,16.53,61,28,3.58,CL,1708797011
420,mancora,-4.1078,-81.0475,29.08,68,57,4.57,PE,1708797011
421,scottburgh,-30.2867,30.7532,25.76,82,86,1.38,ZA,1708797012
422,fredericia,55.5657,9.7526,6.35,89,100,4.32,DK,1708797012
423,remire-montjoly,4.9167,-52.2667,26.02,100,75,1.54,GF,1708797013
424,villa canas,-34.0057,-61.6076,30.03,33,18,3.08,AR,1708797013
425,martinsburg,39.4562,-77.9639,7.73,61,75,3.09,US,1708797014
426,sao vicente,-23.9631,-46.3919,31.66,49,75,2.57,BR,1708796972
427,sohar,24.3643,56.7468,23.56,63,16,3.62,OM,1708797014
428,rundu,-17.9333,19.7667,28.53,27,100,2.87,NA,1708797015
429,port-vila,-17.7338,168.3219,26.71,86,85,6.11,VU,1708797015
430,walvis bay,-22.9575,14.5053,18.38,71,11,8.03,NA,1708797016
431,zouerate,22.7187,-12.4521,24.97,22,0,7.9,MR,1708797016
432,sogndal,61.2283,7.1003,4.21,86,75,1.54,NO,1708797017
433,matoury,4.8483,-52.3317,25.98,100,75,1.54,GF,1708797018
434,senanga,-16.1167,23.2667,25.67,45,100,1.88,ZM,1708797018
435,asau,46.4333,26.4,9.6,63,100,1.75,RO,1708797019
436,puerto deseado,-47.7503,-65.8938,16.57,50,19,7.98,AR,1708797019
437,xilin hot,43.9667,116.0333,-21.02,100,16,0.35,CN,1708797020
438,kruisfontein,-34.0033,24.7314,19.94,81,52,2.71,ZA,1708797021
439,pangody,65.85,74.4859,-12.25,95,100,6.52,RU,1708797022
440,buga,3.9009,-76.2978,29.84,56,61,1.03,CO,1708797023
441,retreat,38.8245,-85.8533,1.64,67,99,1.79,US,1708797024
442,necochea,-38.5473,-58.7368,18.74,47,1,6.19,AR,1708797025
443,phang nga,8.4509,98.5298,26.02,85,62,1.8,TH,1708797026
444,leticia,-4.2153,-69.9406,35.03,59,20,3.6,CO,1708797026
445,grand baie,-20.0182,57.5802,26.92,88,72,2.24,MU,1708797027
446,la passe,45.5549,-0.8967,8.13,76,94,6.45,FR,1708797028
447,nuuk,64.1835,-51.7216,-4.66,100,100,4.12,GL,1708797029
448,inirida,3.8653,-67.9239,39.26,24,56,1.02,CO,1708797030
449,callaway,30.153,-85.5699,21.12,53,0,5.66,US,1708797030
450,el granada,37.5027,-122.4694,18.84,66,0,2.57,US,1708797031
451,salalah,17.0151,54.0924,26.05,69,20,1.03,OM,1708797032
452,saint-pierre,-21.3393,55.4781,25.82,94,100,2.06,RE,1708797033
453,bengkulu,-3.8004,102.2655,25.2,90,99,1.44,ID,1708796841
454,hacienda huancane,-15.8222,-70.8856,9.96,62,99,3.92,PE,1708797034
455,al kharj,24.155,47.3346,27.32,21,8,6.2,SA,1708797034
456,cabo san lucas,22.8909,-109.9124,27.56,64,75,1.54,MX,1708796429
457,suzzara,44.9919,10.7431,11.68,80,100,2.71,IT,1708797035
458,malangas,7.6303,123.0317,23.94,81,34,2.11,PH,1708797036
459,tambacounda,13.7539,-13.7586,37.03,14,0,3.09,SN,1708797036
460,thinadhoo,0.5333,72.9333,27.8,82,55,6.38,MV,1708797037
461,balykshi,47.0667,51.8667,-8.0,73,0,4.0,KZ,1708797037
462,pajara,28.3504,-14.1076,19.73,63,18,11.2,ES,1708797037
463,pokhara,28.2333,83.9833,9.55,18,36,3.48,NP,1708797038
464,nagqu,31.5,92.0,-8.96,37,85,9.02,CN,1708797038
465,cannonvale,-20.2833,148.7,26.66,86,100,6.59,AU,1708797038
466,virac,13.6333,124.2167,21.56,91,52,4.75,PH,1708797039
467,kragero,58.8693,9.4149,4.14,96,100,2.31,NO,1708797039
468,harstad,68.799,16.5293,5.66,97,99,12.07,NO,1708797039
469,ryton,52.6167,-2.35,6.88,83,97,1.04,GB,1708797040
470,dunedin,-45.8742,170.5036,13.78,74,44,4.47,NZ,1708796860
471,libertad,8.9442,125.5019,21.82,91,8,1.94,PH,1708797040
472,ibotirama,-12.1853,-43.2206,33.35,36,2,2.71,BR,1708797027
473,badagry,6.4167,2.8833,28.41,70,99,2.6,NG,1708797041
474,jandiala guru,31.5614,75.0267,12.96,30,72,2.56,IN,1708796796
475,malvan,16.0667,73.4667,23.39,58,28,4.13,IN,1708797042
476,chasong,41.4608,126.6414,-5.14,96,100,0.64,KP,1708797042
477,rio verde de mato grosso,-18.9181,-54.8442,32.61,49,66,3.9,BR,1708796808
478,dzilam gonzalez,21.2833,-88.9333,27.22,49,2,3.52,MX,1708797043
479,mogadishu,2.0371,45.3438,27.09,78,100,8.65,SO,1708797043
480,northam,51.0333,-4.2167,6.48,87,56,3.73,GB,1708797043
481,onega,63.9061,38.1404,0.93,99,100,4.53,RU,1708797043
482,ghat,24.9647,10.1728,23.28,11,1,6.42,LY,1708797044
483,turabah,21.2141,41.6331,23.32,45,3,3.4,SA,1708797044
484,benghazi,32.1167,20.0667,18.55,54,34,3.52,LY,1708797044
485,yokadouma,3.5167,15.05,27.26,30,35,0.93,CM,1708797045
486,srivardhan,18.0333,73.0167,22.04,52,1,3.33,IN,1708797045
487,yeniseysk,58.4497,92.1703,-23.92,99,97,1.34,RU,1708797045
488,zhanaozen,43.3,52.8,-0.87,62,98,4.38,KZ,1708797045
489,puerto carreno,6.189,-67.4859,34.99,43,0,4.63,CO,1708797046
490,enewetak,11.3474,162.3373,25.84,79,97,7.98,MH,1708797046
491,antofagasta,-23.65,-70.4,23.6,69,83,4.42,CL,1708796767
492,abraveses,40.6814,-7.921,9.49,86,78,3.48,PT,1708797047
493,yaren,-0.5472,166.916,28.2,72,79,2.07,NR,1708797047
494,berlin,52.5244,13.4105,9.48,64,0,3.6,DE,1708796450
495,cromer,52.9312,1.2989,7.04,65,8,0.89,GB,1708797048
496,plastun,44.7561,136.2939,-9.57,70,39,2.12,RU,1708797048
497,island harbour,50.724,-1.2758,7.4,88,47,0.45,GB,1708797048
498,port hedland,-20.3167,118.5667,28.03,83,79,5.14,AU,1708797049
499,shingu,33.7333,135.9833,9.26,95,100,4.76,JP,1708797049
500,hobbs,32.7026,-103.136,19.9,28,0,5.66,US,1708796815
501,nalut,30.3333,10.85,18.61,23,83,5.14,LY,1708797050
502,gloucester,51.8657,-2.2431,7.42,78,20,0.45,GB,1708797050
503,mamuju,-2.6748,118.8885,26.33,87,100,3.95,ID,1708797050
504,jakobstad,63.6749,22.7026,2.24,81,100,4.54,FI,1708797051
505,pontevedra,42.431,-8.6444,12.3,92,94,4.25,ES,1708797051
506,hun,29.1268,15.9477,21.46,20,47,5.4,LY,1708797051
507,hiratacho,35.4333,132.8167,4.98,75,75,1.54,JP,1708797052
508,port moresby,-9.4431,147.1797,25.61,86,89,1.5,PG,1708796821
509,ad dilam,23.9915,47.1627,27.23,21,3,5.75,SA,1708797052
510,culebra,18.303,-65.301,29.02,73,77,4.27,PR,1708797052
511,ar raqqah,35.95,39.0167,14.18,67,100,2.75,SY,1708797053
512,nyandoma,61.669,40.1991,0.09,97,100,5.01,RU,1708797053
513,wynyard,-41.0,145.7167,15.91,73,69,2.74,AU,1708797053
514,butte,39.6499,-121.5677,18.32,71,0,2.06,US,1708797054
515,taneytown,39.6579,-77.1744,8.12,59,40,3.6,US,1708797054
516,tondon,10.3667,-13.35,36.29,18,28,3.2,GN,1708797054
517,beyneu,45.3167,55.2,-4.23,47,78,5.49,KZ,1708797055
518,aberdeen,57.1437,-2.0981,5.27,84,40,2.06,GB,1708796831
519,panaji,15.4833,73.8333,26.0,69,6,2.06,IN,1708797055
520,malanje,-9.5402,16.341,20.34,95,100,0.9,AO,1708797056
521,kibaya,-5.3,36.5667,16.87,95,100,1.99,TZ,1708797056
522,padangsidempuan,1.3667,99.2667,22.24,99,99,0.78,ID,1708797056
523,punta del este,-34.9667,-54.95,25.06,75,40,8.75,UY,1708797057
524,sittwe,20.15,92.9,22.61,87,1,4.3,MM,1708797057
525,birstein,50.35,9.3,6.08,80,52,2.6,DE,1708797057
526,sur,22.5667,59.5289,24.02,62,1,3.84,OM,1708797057
527,lakatoro,-16.0999,167.4164,27.04,86,39,3.47,VU,1708797058
528,kanniyakumari,8.0833,77.5667,27.13,79,8,1.91,IN,1708797058
529,kolonia town,6.964,158.206,27.74,82,100,9.51,FM,1708797058
530,port augusta,-32.5,137.7667,18.29,34,20,1.61,AU,1708797059
531,fort bragg,35.139,-79.006,17.12,40,75,5.66,US,1708797059
532,mutum,-19.8,-41.4383,29.34,70,83,1.34,BR,1708797059
533,east ballina,-28.8667,153.5833,22.67,94,100,4.17,AU,1708797060
534,sungai penuh,-2.0833,101.3833,19.25,98,100,0.63,ID,1708797060
535,ejirin,6.6142,3.9002,26.75,67,99,1.24,NG,1708797060
536,bakanas,44.8081,76.2772,-7.93,73,45,2.84,KZ,1708797060
537,rio casca,-20.2261,-42.6508,29.64,69,90,1.97,BR,1708797061
538,tumayr,25.7039,45.868,21.57,30,98,9.23,SA,1708797061
539,karasburg,-28.0167,18.75,25.02,16,4,8.76,NA,1708797062
540,caister-on-sea,52.6481,1.7265,7.17,82,8,3.27,GB,1708797061
541,xiva,41.3783,60.3639,-3.01,42,94,6.41,UZ,1708797063
542,gunjur,13.2019,-16.7339,35.04,11,100,4.63,GM,1708797063
543,menongue,-14.6585,17.691,24.4,36,100,2.41,AO,1708797063
544,kristiansund,63.1115,7.732,5.36,60,40,3.6,NO,1708797064
545,sabang,5.8933,95.3214,28.3,74,91,3.79,ID,1708797064
546,markovo,57.3206,107.0881,-31.44,100,83,1.15,RU,1708797065
547,loa janan,-0.583,117.095,24.13,98,78,0.86,ID,1708797067
548,tripoli,32.8752,13.1875,19.74,46,98,5.94,LY,1708797069
549,igurubi,-4.0,33.7,20.77,86,100,1.06,TZ,1708797069
550,gizo,-8.103,156.8419,27.14,80,100,1.37,SB,1708797071
551,kenai,60.5544,-151.2583,-3.28,94,100,2.06,US,1708797075
552,botro,7.8525,-5.3106,37.71,10,57,1.13,CI,1708797077
553,arcadia,34.1397,-118.0353,21.23,46,0,0.45,US,1708797077
554,homer,59.6425,-151.5483,0.93,74,75,9.39,US,1708797078
555,fort mcmurray,56.7268,-111.381,-9.23,79,100,4.12,CA,1708797078
556,prado,-17.3411,-39.2208,28.89,68,2,3.31,BR,1708797079
557,zalesovo,53.9939,84.7431,-21.56,100,90,0.9,RU,1708797084
558,bria,6.5423,21.9863,31.42,22,95,1.76,CF,1708797086
559,west livingston,30.6983,-95.0019,24.03,49,0,0.89,US,1708797087
560,zavety il'icha,49.0294,140.2494,-18.8,92,35,1.76,RU,1708797087
561,las lomitas,-24.7096,-60.593,35.87,39,97,2.02,AR,1708797087
562,veraval,20.9,70.3667,22.65,43,0,4.13,IN,1708797088
563,biltine,14.5333,20.9167,30.07,18,28,4.13,TD,1708797088
564,taltal,-25.4,-70.4833,23.33,71,42,4.12,CL,1708796838
565,belmonte,-15.8631,-38.8828,29.09,67,44,3.55,BR,1708797089
566,ilebo,-4.3167,20.5833,23.26,98,80,1.19,CD,1708797089
567,rabaul,-4.1967,152.1721,27.1,78,96,1.69,PG,1708797090
568,heniches'k,46.1759,34.8034,5.65,80,16,8.36,UA,1708797091
569,tarawa,1.419,172.984,27.05,94,20,0.51,KI,1708797091
570,whitby,54.4877,-0.615,6.7,84,13,1.58,GB,1708796671
571,new london,41.4834,-72.0662,6.01,63,75,5.66,US,1708797092
572,bowen,-20.0167,148.2333,22.87,86,100,3.89,AU,1708797093
573,nagato,34.3833,131.2,6.05,87,100,2.14,JP,1708797093
574,sergeyevka,53.88,67.4158,-14.55,92,81,4.79,KZ,1708797094
575,riohacha,11.5444,-72.9072,31.06,66,20,5.66,CO,1708796547
576,price,39.5994,-110.8107,5.06,51,0,1.54,US,1708797095
577,staraya russa,57.9944,31.3608,1.1,91,100,7.47,RU,1708797096
578,urangan,-25.3,152.9,24.55,95,100,4.02,AU,1708797096
579,ambon,-3.6954,128.1814,28.38,12,40,3.09,ID,1708797097
580,peebles,55.6519,-3.1888,5.4,98,98,1.48,GB,1708797097
581,tamanrasset,22.785,5.5228,21.95,11,0,6.69,DZ,1708797098
582,okhotsk,59.3833,143.3,-24.96,83,22,4.61,RU,1708797098
